{
"type": "FeatureCollection",
"name": "iglesias",
"crs": { "type": "name", "properties": { "name": "urn:ogc:def:crs:OGC:1.3:CRS84" } },
"features": [
{ "type": "Feature", "properties": { "name": "casa parroquial", "y longitud": -71.67800456000001, "x latitud": -13.67404049, "tipo": "Iglesias" }, "geometry": { "type": "Point", "coordinates": [ -71.678004563, -13.674040486 ] } },
{ "type": "Feature", "properties": { "name": "capilla posa", "y longitud": -71.67688575, "x latitud": -13.67375869, "tipo": "Iglesias" }, "geometry": { "type": "Point", "coordinates": [ -71.676885746, -13.673758692 ] } },
{ "type": "Feature", "properties": { "name": "capilla posa", "y longitud": -71.67802233, "x latitud": -13.67381179, "tipo": "Iglesias" }, "geometry": { "type": "Point", "coordinates": [ -71.678022332, -13.673811794 ] } },
{ "type": "Feature", "properties": { "name": "iglesia de Urcos", "y longitud": -71.6259392, "x latitud": -13.68867051, "tipo": "Iglesias" }, "geometry": { "type": "Point", "coordinates": [ -71.625939198, -13.688670505 ] } },
{ "type": "Feature", "properties": { "name": "Capilla Canincunca", "y longitud": -71.63542047, "x latitud": -13.6874916, "tipo": "Iglesias" }, "geometry": { "type": "Point", "coordinates": [ -71.635420471, -13.687491602 ] } },
{ "type": "Feature", "properties": { "name": "siervos de Dios", "y longitud": -71.6741908, "x latitud": -13.67514648, "tipo": "Iglesias" }, "geometry": { "type": "Point", "coordinates": [ -71.674190797, -13.675146484 ] } },
{ "type": "Feature", "properties": { "name": "Capilla Canincunca", "y longitud": -71.6750445, "x latitud": -13.6710975, "tipo": "Iglesias" }, "geometry": { "type": "Point", "coordinates": [ -71.6750445, -13.6710975 ] } },
{ "type": "Feature", "properties": { "name": "cap_cunicunca", "y longitud": -71.63546506, "x latitud": -13.68747075, "tipo": "Iglesias" }, "geometry": { "type": "Point", "coordinates": [ -71.635465063, -13.687470754 ] } },
{ "type": "Feature", "properties": { "name": "ig_huaro", "y longitud": -71.64088748, "x latitud": -13.69099246, "tipo": "Iglesias" }, "geometry": { "type": "Point", "coordinates": [ -71.640887484, -13.69099246 ] } },
{ "type": "Feature", "properties": { "name": "ig_andahuaylillas", "y longitud": -71.67777087, "x latitud": -13.67447963, "tipo": "Iglesias" }, "geometry": { "type": "Point", "coordinates": [ -71.677770875, -13.674479628 ] } }
]
}
